{
  "AKJ": {
    "lat": 43.670799,
    "lon": 142.447006,
    "name": "Asahikawa Airport",
    "timezone": "AS/Higashikagura"
  },
  "AKL": {
    "lat": -37.01199,
    "lon": 174.786331,
    "name": "Auckland International Airport",
    "timezone": "OC/Auckland"
  },
  "ALA": {
    "lat": 43.354267,
    "lon": 77.042828,
    "name": "Almaty International Airport",
    "timezone": "AS/Almaty"
  },
  "AMM": {
    "lat": 31.7226009369,
    "lon": 35.9931983948,
    "name": "Queen Alia International Airport",
    "timezone": "AS/Amman"
  },
  "ANC": {
    "lat": 61.1744,
    "lon": -149.996002,
    "name": "Ted Stevens Anchorage International Airport",
    "timezone": "NA/Anchorage"
  },
  "AOJ": {
    "lat": 40.73469924926758,
    "lon": 140.6909942626953,
    "name": "Aomori Airport",
    "timezone": "AS/Aomori"
  },
  "ASJ": {
    "lat": 28.430599212646484,
    "lon": 129.71299743652344,
    "name": "Amami Airport",
    "timezone": "AS/Amami"
  },
  "AYT": {
    "lat": 36.898701,
    "lon": 30.800501,
    "name": "Antalya International Airport",
    "timezone": "AS/Antalya"
  },
  "BCD": {
    "lat": 10.7764,
    "lon": 123.014999,
    "name": "Bacolod-Silay Airport",
    "timezone": "AS/Bacolod City"
  },
  "BLR": {
    "lat": 13.1979,
    "lon": 77.706299,
    "name": "Kempegowda International Airport",
    "timezone": "AS/Bangalore"
  },
  "BNE": {
    "lat": -27.384199142456055,
    "lon": 153.11700439453125,
    "name": "Brisbane International Airport",
    "timezone": "OC/Brisbane"
  },
  "BOM": {
    "lat": 19.0886993408,
    "lon": 72.8678970337,
    "name": "Chhatrapati Shivaji International Airport",
    "timezone": "AS/Mumbai"
  },
  "BWU": {
    "lat": -33.923618,
    "lon": 150.990792,
    "name": "Sydney Bankstown Airport",
    "timezone": "OC/Sydney"
  },
  "CDG": {
    "lat": 49.012798,
    "lon": 2.55,
    "name": "Charles de Gaulle International Airport",
    "timezone": "EU/Paris"
  },
  "CEB": {
    "lat": 10.309261,
    "lon": 123.97974,
    "name": "Mactan Cebu International Airport",
    "timezone": "AS/Lapu-Lapu City"
  },
  "CFS": {
    "lat": -30.320601,
    "lon": 153.115997,
    "name": "Coffs Harbour Airport",
    "timezone": "OC/Coffs Harbour"
  },
  "CGK": {
    "lat": -6.1255698204,
    "lon": 106.65599823,
    "name": "Soekarno-Hatta International Airport",
    "timezone": "AS/Jakarta"
  },
  "CGQ": {
    "lat": 43.996201,
    "lon": 125.684998,
    "name": "Changchun Longjia International Airport",
    "timezone": "AS/Changchun"
  },
  "CHC": {
    "lat": -43.48939895629883,
    "lon": 172.53199768066406,
    "name": "Christchurch International Airport",
    "timezone": "OC/Christchurch"
  },
  "CJU": {
    "lat": 33.512058,
    "lon": 126.492548,
    "name": "Jeju International Airport",
    "timezone": "AS/Jeju City"
  },
  "CNS": {
    "lat": -16.885799408,
    "lon": 145.755004883,
    "name": "Cairns International Airport",
    "timezone": "OC/Cairns"
  },
  "CTS": {
    "lat": 42.7752,
    "lon": 141.692001,
    "name": "New Chitose Airport",
    "timezone": "AS/Sapporo"
  },
  "DAD": {
    "lat": 16.0439,
    "lon": 108.198997,
    "name": "Da Nang International Airport",
    "timezone": "AS/Da Nang"
  },
  "DOH": {
    "lat": 25.273056,
    "lon": 51.608056,
    "name": "Hamad International Airport",
    "timezone": "AS/Doha"
  },
  "DUD": {
    "lat": -45.928101,
    "lon": 170.197998,
    "name": "Dunedin International Airport",
    "timezone": "OC/Dunedin"
  },
  "DXB": {
    "lat": 25.2527999878,
    "lon": 55.3643989563,
    "name": "Dubai International Airport",
    "timezone": "AS/Dubai"
  },
  "EVN": {
    "lat": 40.1473007202,
    "lon": 44.3959007263,
    "name": "Zvartnots International Airport",
    "timezone": "AS/Yerevan"
  },
  "EWR": {
    "lat": 40.692501,
    "lon": -74.168701,
    "name": "Newark Liberty International Airport",
    "timezone": "NA/Newark"
  },
  "FUK": {
    "lat": 33.585899353027344,
    "lon": 130.4510040283203,
    "name": "Fukuoka Airport",
    "timezone": "AS/Fukuoka"
  },
  "HAN": {
    "lat": 21.221201,
    "lon": 105.806999,
    "name": "Noi Bai International Airport",
    "timezone": "AS/Hanoi (Soc Son)"
  },
  "HGH": {
    "lat": 30.23609,
    "lon": 120.428865,
    "name": "Hangzhou Xiaoshan International Airport",
    "timezone": "AS/Hangzhou"
  },
  "HIJ": {
    "lat": 34.4361,
    "lon": 132.919006,
    "name": "Hiroshima Airport",
    "timezone": "AS/Hiroshima"
  },
  "HKG": {
    "lat": 22.308901,
    "lon": 113.915001,
    "name": "Hong Kong International Airport",
    "timezone": "AS/Islands"
  },
  "HKK": {
    "lat": -42.713600158691406,
    "lon": 170.98500061035156,
    "name": "Hokitika Airfield",
    "timezone": "OC/"
  },
  "HKT": {
    "lat": 8.1132,
    "lon": 98.316902,
    "name": "Phuket International Airport",
    "timezone": "AS/Phuket"
  },
  "HLP": {
    "lat": -6.266610145568848,
    "lon": 106.89099884033205,
    "name": "Halim Perdanakusuma International Airport",
    "timezone": "AS/Jakarta"
  },
  "HND": {
    "lat": 35.552299,
    "lon": 139.779999,
    "name": "Tokyo Haneda International Airport",
    "timezone": "AS/Tokyo"
  },
  "ICN": {
    "lat": 37.46910095214844,
    "lon": 126.45099639892578,
    "name": "Incheon International Airport",
    "timezone": "AS/Seoul"
  },
  "ILO": {
    "lat": 10.833017,
    "lon": 122.493358,
    "name": "Iloilo International Airport",
    "timezone": "AS/Cabatuan"
  },
  "INC": {
    "lat": 38.322758,
    "lon": 106.393214,
    "name": "Yinchuan Hedong International Airport",
    "timezone": "AS/Yinchuan"
  },
  "ITM": {
    "lat": 34.785499572753906,
    "lon": 135.43800354003906,
    "name": "Osaka International Airport",
    "timezone": "AS/Osaka"
  },
  "JFK": {
    "lat": 40.639447,
    "lon": -73.779317,
    "name": "John F Kennedy International Airport",
    "timezone": "NA/New York"
  },
  "KIX": {
    "lat": 34.427299,
    "lon": 135.244003,
    "name": "Kansai International Airport",
    "timezone": "AS/Osaka"
  },
  "KMJ": {
    "lat": 32.83729934692383,
    "lon": 130.85499572753906,
    "name": "Kumamoto Airport",
    "timezone": "AS/Kumamoto"
  },
  "KNO": {
    "lat": 3.637847,
    "lon": 98.870566,
    "name": "Kualanamu International Airport",
    "timezone": "AS/Medan"
  },
  "KOJ": {
    "lat": 31.80340003967285,
    "lon": 130.718994140625,
    "name": "Kagoshima Airport",
    "timezone": "AS/Kagoshima"
  },
  "KWI": {
    "lat": 29.226601,
    "lon": 47.968899,
    "name": "Kuwait International Airport",
    "timezone": "AS/Kuwait City"
  },
  "LAX": {
    "lat": 33.942501,
    "lon": -118.407997,
    "name": "Los Angeles / Tom Bradley International Airport",
    "timezone": "NA/Los Angeles"
  },
  "MCT": {
    "lat": 23.593299865722656,
    "lon": 58.284400939941406,
    "name": "Muscat International Airport",
    "timezone": "AS/Muscat"
  },
  "MEB": {
    "lat": -37.7281,
    "lon": 144.901993,
    "name": "Melbourne Essendon Airport",
    "timezone": "OC/Essendon Fields"
  },
  "MEL": {
    "lat": -37.673302,
    "lon": 144.843002,
    "name": "Melbourne International Airport",
    "timezone": "OC/Melbourne"
  },
  "MLE": {
    "lat": 4.191830158233643,
    "lon": 73.52909851074219,
    "name": "Mal\u00e9 International Airport",
    "timezone": "AS/Mal\u00e9"
  },
  "MNL": {
    "lat": 14.5086,
    "lon": 121.019997,
    "name": "Ninoy Aquino International Airport",
    "timezone": "AS/Manila"
  },
  "MRU": {
    "lat": -20.430201,
    "lon": 57.683601,
    "name": "Sir Seewoosagur Ramgoolam International Airport",
    "timezone": "AF/Plaine Magnien"
  },
  "NGO": {
    "lat": 34.8583984375,
    "lon": 136.80499267578125,
    "name": "Chubu Centrair International Airport",
    "timezone": "AS/Tokoname"
  },
  "NKG": {
    "lat": 31.735032,
    "lon": 118.865949,
    "name": "Nanjing Lukou International Airport",
    "timezone": "AS/Nanjing"
  },
  "NMA": {
    "lat": 40.9846,
    "lon": 71.556702,
    "name": "Namangan Airport",
    "timezone": "AS/Namangan"
  },
  "NMF": {
    "lat": 5.818394,
    "lon": 73.469181,
    "name": "Maafaru International Airport",
    "timezone": "AS/Noonu Atoll"
  },
  "NRT": {
    "lat": 35.764702,
    "lon": 140.386002,
    "name": "Narita International Airport",
    "timezone": "AS/Narita"
  },
  "NTL": {
    "lat": -32.79499816894531,
    "lon": 151.83399963378906,
    "name": "Newcastle Airport",
    "timezone": "OC/Williamtown"
  },
  "OBO": {
    "lat": 42.7332992554,
    "lon": 143.216995239,
    "name": "Tokachi-Obihiro Airport",
    "timezone": "AS/Obihiro"
  },
  "OKA": {
    "lat": 26.195801,
    "lon": 127.646004,
    "name": "Naha Airport / JASDF Naha Air Base",
    "timezone": "AS/Naha"
  },
  "PEK": {
    "lat": 40.080101013183594,
    "lon": 116.58499908447266,
    "name": "Beijing Capital International Airport",
    "timezone": "AS/Beijing"
  },
  "PER": {
    "lat": -31.94029998779297,
    "lon": 115.96700286865234,
    "name": "Perth International Airport",
    "timezone": "OC/Perth"
  },
  "PEW": {
    "lat": 33.993900299072266,
    "lon": 71.51460266113281,
    "name": "Peshawar International Airport",
    "timezone": "AS/Peshawar"
  },
  "PLM": {
    "lat": -2.897653,
    "lon": 104.698147,
    "name": "Sultan Mahmud Badaruddin II Airport",
    "timezone": "AS/Palembang"
  },
  "RKT": {
    "lat": 25.613500595092773,
    "lon": 55.93880081176758,
    "name": "Ras Al Khaimah International Airport",
    "timezone": "AS/Ras Al Khaimah"
  },
  "SAW": {
    "lat": 40.898602,
    "lon": 29.3092,
    "name": "Istanbul Sabiha G\u00f6k\u00e7en International Airport",
    "timezone": "AS/Pendik, Istanbul"
  },
  "SGN": {
    "lat": 10.8188,
    "lon": 106.652,
    "name": "Tan Son Nhat International Airport",
    "timezone": "AS/Ho Chi Minh City"
  },
  "SHA": {
    "lat": 31.198104,
    "lon": 121.33426,
    "name": "Shanghai Hongqiao International Airport",
    "timezone": "AS/Shanghai (Minhang)"
  },
  "SHE": {
    "lat": 41.639801,
    "lon": 123.483002,
    "name": "Shenyang Taoxian International Airport",
    "timezone": "AS/Hunnan, Shenyang"
  },
  "SVO": {
    "lat": 55.972599,
    "lon": 37.4146,
    "name": "Sheremetyevo International Airport",
    "timezone": "EU/Moscow"
  },
  "SYD": {
    "lat": -33.94609832763672,
    "lon": 151.177001953125,
    "name": "Sydney Kingsford Smith International Airport",
    "timezone": "OC/Sydney"
  },
  "SZX": {
    "lat": 22.639299,
    "lon": 113.810997,
    "name": "Shenzhen Bao'an International Airport",
    "timezone": "AS/Shenzhen (Bao'an)"
  },
  "TAE": {
    "lat": 35.896872,
    "lon": 128.65531,
    "name": "Daegu Airport",
    "timezone": "AS/Daegu"
  },
  "TAS": {
    "lat": 41.257900238,
    "lon": 69.2811965942,
    "name": "Tashkent International Airport",
    "timezone": "AS/Tashkent"
  },
  "TKS": {
    "lat": 34.132801,
    "lon": 134.606995,
    "name": "Tokushima Awaodori Airport / JMSDF Tokushima Air Base",
    "timezone": "AS/Tokushima"
  },
  "TPE": {
    "lat": 25.0777,
    "lon": 121.233002,
    "name": "Taiwan Taoyuan International Airport",
    "timezone": "AS/Taoyuan (Dayuan)"
  },
  "TSV": {
    "lat": -19.252904,
    "lon": 146.766512,
    "name": "Townsville Airport / RAAF Base Townsville",
    "timezone": "OC/Townsville"
  },
  "URC": {
    "lat": 43.907100677490234,
    "lon": 87.47419738769531,
    "name": "\u00dcr\u00fcmqi Diwopu International Airport",
    "timezone": "AS/\u00dcr\u00fcmqi"
  },
  "VTE": {
    "lat": 17.988300323500003,
    "lon": 102.56300354,
    "name": "Wattay International Airport",
    "timezone": "AS/Vientiane"
  },
  "WEH": {
    "lat": 37.187099,
    "lon": 122.228996,
    "name": "Weihai Dashuibo Airport",
    "timezone": "AS/Weihai"
  },
  "WLG": {
    "lat": -41.3272018433,
    "lon": 174.804992676,
    "name": "Wellington International Airport",
    "timezone": "OC/Wellington"
  },
  "XIY": {
    "lat": 34.447102,
    "lon": 108.751999,
    "name": "Xi'an Xianyang International Airport",
    "timezone": "AS/Xianyang (Weicheng)"
  },
  "YGJ": {
    "lat": 35.492199,
    "lon": 133.235992,
    "name": "Yonago Kitaro Airport / JASDF Miho Air Base",
    "timezone": "AS/Yonago"
  },
  "YNZ": {
    "lat": 33.425833,
    "lon": 120.203056,
    "name": "Yancheng Nanyang International Airport",
    "timezone": "AS/Yancheng"
  },
  "ZQN": {
    "lat": -45.021099,
    "lon": 168.738998,
    "name": "Queenstown International Airport",
    "timezone": "OC/Queenstown"
  }
}